{"type":"FeatureCollection","crs":{"type":"name","properties":{"name":"urn:ogc:def:crs:OGC:1.3:CRS84"}},"source":"CIE 0.2.1 (geojson port)","features":[{"type":"Feature","properties":{"description":"Geb√§ude 1","gd_roof":1,"pv_roof":1,"st_wall":0,"pv_wall":7,"st_roof":2,"locations":[{"city":{"zip":"33689","name":"Bielefeld / Sennestadt","ags":"5711000"},"description":"Hauptadresse!","street":"Elbeallee","house_no":136,"centre":{"lon":8.592942059003976,"lat":51.949036307298314},"relative_importance":1},{"city":{"zip":"33689","name":"Bielefeld / Sennestadt","ags":"5711000"},"street":"Elbeallee","house_no":138,"relative_importance":0},{"city":{"zip":"33689","name":"Bielefeld / Sennestadt","ags":"5711000"},"street":"Elbeallee","house_no":140,"relative_importance":0},{"city":{"zip":"33689","name":"Bielefeld / Sennestadt","ags":"5711000"},"street":"Elbeallee","house_no":142,"relative_importance":0},{"city":{"zip":"33689","name":"Bielefeld / Sennestadt","ags":"5711000"},"street":"Elbeallee","house_no":144,"relative_importance":0},{"city":{"zip":"33689","name":"Bielefeld / Sennestadt","ags":"5711000"},"street":"Elbeallee","house_no":146,"relative_importance":0},{"city":{"zip":"33689","name":"Bielefeld / Sennestadt","ags":"5711000"},"street":"Elbeallee","house_no":148,"relative_importance":0}]},"geometry":{"type":"Polygon","coordinates":[[[8.592947889050128,51.949102167316],[8.59292839448037,51.949093846098314],[8.593001860075967,51.94903414746998],[8.593019261538183,51.949026160592695],[8.59303362898868,51.94903669386494],[8.59311276133683,51.949000337643724],[8.593217017093082,51.94897572961376],[8.593168327269147,51.94887822383632],[8.593162643084488,51.94887929211808],[8.593048288751305,51.9489007992352],[8.593057931013757,51.948914148366974],[8.59294834415259,51.948944222391916],[8.592959609643303,51.948955059637775],[8.592865526642761,51.94899226317016],[8.592880627796635,51.949002106684176],[8.592795409308481,51.949051757507476],[8.592812802008831,51.949060808748],[8.592734717578272,51.94911797377701],[8.59277190235108,51.949129808790126],[8.592766165762406,51.949136658143004],[8.592739659275342,51.9491683589614],[8.592853280456426,51.94920058935905],[8.592858966250228,51.94919292163709],[8.592893537629479,51.949146296492934],[8.592947889050128,51.949102167316]]]}}]}